[
  {
    "name": "Afghanistan",
    "capital": "Kabul",
    "latitude": 34.5553,
    "longitude": 69.2075,
    "radius": 100,
    "flag": "https://flagcdn.com/w320/af.png",
    "difficulty": "hard"
  },
  {
    "name": "Albania",
    "capital": "Tirana",
    "latitude": 41.3275,
    "longitude": 19.8189,
    "radius": 100,
    "flag": "https://flagcdn.com/w320/al.png",
    "difficulty": "medium"
  },
  {
    "name": "Algeria",
    "capital": "Algiers",
    "latitude": 36.7538,
    "longitude": 3.0588,
    "radius": 100,
    "flag": "https://flagcdn.com/w320/dz.png",
    "difficulty": "medium"
  },
  {
    "name": "Andorra",
    "capital": "Andorra la Vella",
    "latitude": 42.5078,
    "longitude": 1.5211,
    "radius": 100,
    "flag": "https://flagcdn.com/w320/ad.png",
    "difficulty": "medium"
  },
  {
    "name": "Angola",
    "capital": "Luanda",
    "latitude": -8.839,
    "longitude": 13.2894,
    "radius": 100,
    "flag": "https://flagcdn.com/w320/ao.png",
    "difficulty": "hard"
  },
  {
    "name": "Antigua and Barbuda",
    "capital": "Saint John's",
    "latitude": 17.1274,
    "longitude": -61.8468,
    "radius": 100,
    "flag": "https://flagcdn.com/w320/ag.png",
    "difficulty": "hard"
  },
  {
    "name": "Argentina",
    "capital": "Buenos Aires",
    "latitude": -34.6037,
    "longitude": -58.3816,
    "radius": 100,
    "flag": "https://flagcdn.com/w320/ar.png",
    "difficulty": "easy"
  },
  {
    "name": "Armenia",
    "capital": "Yerevan",
    "latitude": 40.1792,
    "longitude": 44.4991,
    "radius": 100,
    "flag": "https://flagcdn.com/w320/am.png",
    "difficulty": "hard"
  },
  {
    "name": "Australia",
    "capital": "Canberra",
    "latitude": -35.2809,
    "longitude": 149.13,
    "radius": 100,
    "flag": "https://flagcdn.com/w320/au.png",
    "difficulty": "easy"
  },
  {
    "name": "Austria",
    "capital": "Vienna",
    "latitude": 48.2082,
    "longitude": 16.3738,
    "radius": 100,
    "flag": "https://flagcdn.com/w320/at.png",
    "difficulty": "easy"
  },
  {
    "name": "Azerbaijan",
    "capital": "Baku",
    "latitude": 40.4093,
    "longitude": 49.8671,
    "radius": 100,
    "flag": "https://flagcdn.com/w320/az.png",
    "difficulty": "hard"
  },
  {
    "name": "Bahamas",
    "capital": "Nassau",
    "latitude": 25.0343,
    "longitude": -77.3963,
    "radius": 100,
    "flag": "https://flagcdn.com/w320/bs.png",
    "difficulty": "medium"
  },
  {
    "name": "Bahrain",
    "capital": "Manama",
    "latitude": 26.2285,
    "longitude": 50.586,
    "radius": 100,
    "flag": "https://flagcdn.com/w320/bh.png",
    "difficulty": "hard"
  },
  {
    "name": "Bangladesh",
    "capital": "Dhaka",
    "latitude": 23.8103,
    "longitude": 90.4125,
    "radius": 100,
    "flag": "https://flagcdn.com/w320/bd.png",
    "difficulty": "medium"
  },
  {
    "name": "Barbados",
    "capital": "Bridgetown",
    "latitude": 13.0975,
    "longitude": -59.6167,
    "radius": 100,
    "flag": "https://flagcdn.com/w320/bb.png",
    "difficulty": "hard"
  },
  {
    "name": "Belarus",
    "capital": "Minsk",
    "latitude": 53.9,
    "longitude": 27.5667,
    "radius": 100,
    "flag": "https://flagcdn.com/w320/by.png",
    "difficulty": "medium"
  },
  {
    "name": "Belgium",
    "capital": "Brussels",
    "latitude": 50.8503,
    "longitude": 4.3517,
    "radius": 100,
    "flag": "https://flagcdn.com/w320/be.png",
    "difficulty": "easy"
  },
  {
    "name": "Belize",
    "capital": "Belmopan",
    "latitude": 17.25,
    "longitude": -88.7667,
    "radius": 100,
    "flag": "https://flagcdn.com/w320/bz.png",
    "difficulty": "hard"
  },
  {
    "name": "Benin",
    "capital": "Porto-Novo",
    "latitude": 6.4969,
    "longitude": 2.6289,
    "radius": 100,
    "flag": "https://flagcdn.com/w320/bj.png",
    "difficulty": "hard"
  },
  {
    "name": "Bhutan",
    "capital": "Thimphu",
    "latitude": 27.4728,
    "longitude": 89.639,
    "radius": 100,
    "flag": "https://flagcdn.com/w320/bt.png",
    "difficulty": "hard"
  },
  {
    "name": "Azerbaijan",
    "capital": "Baku",
    "latitude": 40.4093,
    "longitude": 49.8671,
    "radius": 100,
    "flag": "https://flagcdn.com/w320/az.png",
    "difficulty": "medium"
  },
  {
    "name": "Bahamas",
    "capital": "Nassau",
    "latitude": 25.0343,
    "longitude": -77.3963,
    "radius": 100,
    "flag": "https://flagcdn.com/w320/bs.png",
    "difficulty": "easy"
  },
  {
    "name": "Bahrain",
    "capital": "Manama",
    "latitude": 26.2285,
    "longitude": 50.586,
    "radius": 100,
    "flag": "https://flagcdn.com/w320/bh.png",
    "difficulty": "medium"
  },
  {
    "name": "Bangladesh",
    "capital": "Dhaka",
    "latitude": 23.8103,
    "longitude": 90.4125,
    "radius": 100,
    "flag": "https://flagcdn.com/w320/bd.png",
    "difficulty": "medium"
  },
  {
    "name": "Barbados",
    "capital": "Bridgetown",
    "latitude": 13.0975,
    "longitude": -59.6167,
    "radius": 100,
    "flag": "https://flagcdn.com/w320/bb.png",
    "difficulty": "medium"
  },
  {
    "name": "Belarus",
    "capital": "Minsk",
    "latitude": 53.9,
    "longitude": 27.5667,
    "radius": 100,
    "flag": "https://flagcdn.com/w320/by.png",
    "difficulty": "medium"
  },
  {
    "name": "Belgium",
    "capital": "Brussels",
    "latitude": 50.8503,
    "longitude": 4.3517,
    "radius": 100,
    "flag": "https://flagcdn.com/w320/be.png",
    "difficulty": "easy"
  },
  {
    "name": "Belize",
    "capital": "Belmopan",
    "latitude": 17.25,
    "longitude": -88.7667,
    "radius": 100,
    "flag": "https://flagcdn.com/w320/bz.png",
    "difficulty": "medium"
  },
  {
    "name": "Benin",
    "capital": "Porto-Novo",
    "latitude": 6.4969,
    "longitude": 2.6289,
    "radius": 100,
    "flag": "https://flagcdn.com/w320/bj.png",
    "difficulty": "hard"
  },
  {
    "name": "Bhutan",
    "capital": "Thimphu",
    "latitude": 27.4728,
    "longitude": 89.639,
    "radius": 100,
    "flag": "https://flagcdn.com/w320/bt.png",
    "difficulty": "hard"
  },
  {
    "name": "Bolivia",
    "capital": "Sucre",
    "latitude": -19.0333,
    "longitude": -65.2627,
    "radius": 100,
    "flag": "https://flagcdn.com/w320/bo.png",
    "difficulty": "medium"
  },
  {
    "name": "Bosnia and Herzegovina",
    "capital": "Sarajevo",
    "latitude": 43.8563,
    "longitude": 18.4131,
    "radius": 100,
    "flag": "https://flagcdn.com/w320/ba.png",
    "difficulty": "medium"
  },
  {
    "name": "Botswana",
    "capital": "Gaborone",
    "latitude": -24.6282,
    "longitude": 25.9231,
    "radius": 100,
    "flag": "https://flagcdn.com/w320/bw.png",
    "difficulty": "hard"
  },
  {
    "name": "Brazil",
    "capital": "Brasília",
    "latitude": -15.8267,
    "longitude": -47.9218,
    "radius": 100,
    "flag": "https://flagcdn.com/w320/br.png",
    "difficulty": "easy"
  },
  {
    "name": "Brunei",
    "capital": "Bandar Seri Begawan",
    "latitude": 4.9031,
    "longitude": 114.9398,
    "radius": 100,
    "flag": "https://flagcdn.com/w320/bn.png",
    "difficulty": "hard"
  },
  {
    "name": "Bulgaria",
    "capital": "Sofia",
    "latitude": 42.6975,
    "longitude": 23.3242,
    "radius": 100,
    "flag": "https://flagcdn.com/w320/bg.png",
    "difficulty": "medium"
  },
  {
    "name": "Burkina Faso",
    "capital": "Ouagadougou",
    "latitude": 12.3714,
    "longitude": -1.5197,
    "radius": 100,
    "flag": "https://flagcdn.com/w320/bf.png",
    "difficulty": "hard"
  },
  {
    "name": "Burundi",
    "capital": "Gitega",
    "latitude": -3.4264,
    "longitude": 29.9306,
    "radius": 100,
    "flag": "https://flagcdn.com/w320/bi.png",
    "difficulty": "hard"
  },
  {
    "name": "Cambodia",
    "capital": "Phnom Penh",
    "latitude": 11.5564,
    "longitude": 104.9282,
    "radius": 100,
    "flag": "https://flagcdn.com/w320/kh.png",
    "difficulty": "medium"
  },
  {
    "name": "Cameroon",
    "capital": "Yaoundé",
    "latitude": 3.848,
    "longitude": 11.5021,
    "radius": 100,
    "flag": "https://flagcdn.com/w320/cm.png",
    "difficulty": "medium"
  },
  {
    "name": "Canada",
    "capital": "Ottawa",
    "latitude": 45.4215,
    "longitude": -75.6972,
    "radius": 100,
    "flag": "https://flagcdn.com/w320/ca.png",
    "difficulty": "easy"
  },
  {
    "name": "Cape Verde",
    "capital": "Praia",
    "latitude": 14.9331,
    "longitude": -23.5133,
    "radius": 100,
    "flag": "https://flagcdn.com/w320/cv.png",
    "difficulty": "hard"
  },
  {
    "name": "Central African Republic",
    "capital": "Bangui",
    "latitude": 4.3947,
    "longitude": 18.5582,
    "radius": 100,
    "flag": "https://flagcdn.com/w320/cf.png",
    "difficulty": "hard"
  },
  {
    "name": "Chad",
    "capital": "N'Djamena",
    "latitude": 12.1348,
    "longitude": 15.0557,
    "radius": 100,
    "flag": "https://flagcdn.com/w320/td.png",
    "difficulty": "hard"
  },
  {
    "name": "Chile",
    "capital": "Santiago",
    "latitude": -33.4489,
    "longitude": -70.6693,
    "radius": 100,
    "flag": "https://flagcdn.com/w320/cl.png",
    "difficulty": "medium"
  },
  {
    "name": "China",
    "capital": "Beijing",
    "latitude": 39.9042,
    "longitude": 116.4074,
    "radius": 100,
    "flag": "https://flagcdn.com/w320/cn.png",
    "difficulty": "easy"
  },
  {
    "name": "Colombia",
    "capital": "Bogotá",
    "latitude": 4.711,
    "longitude": -74.0721,
    "radius": 100,
    "flag": "https://flagcdn.com/w320/co.png",
    "difficulty": "medium"
  },
  {
    "name": "Comoros",
    "capital": "Moroni",
    "latitude": -11.7172,
    "longitude": 43.2473,
    "radius": 100,
    "flag": "https://flagcdn.com/w320/km.png",
    "difficulty": "hard"
  },
  {
    "name": "Congo (Congo-Brazzaville)",
    "capital": "Brazzaville",
    "latitude": -4.2634,
    "longitude": 15.2429,
    "radius": 100,
    "flag": "https://flagcdn.com/w320/cg.png",
    "difficulty": "hard"
  },
  {
    "name": "Costa Rica",
    "capital": "San José",
    "latitude": 9.9281,
    "longitude": -84.0907,
    "radius": 100,
    "flag": "https://flagcdn.com/w320/cr.png",
    "difficulty": "medium"
  },
  {
    "name": "Croatia",
    "capital": "Zagreb",
    "latitude": 45.815,
    "longitude": 15.9819,
    "radius": 100,
    "flag": "https://flagcdn.com/w320/hr.png",
    "difficulty": "medium"
  },
  {
    "name": "Cuba",
    "capital": "Havana",
    "latitude": 23.1136,
    "longitude": -82.3666,
    "radius": 100,
    "flag": "https://flagcdn.com/w320/cu.png",
    "difficulty": "medium"
  },
  {
    "name": "Cyprus",
    "capital": "Nicosia",
    "latitude": 35.1856,
    "longitude": 33.3823,
    "radius": 100,
    "flag": "https://flagcdn.com/w320/cy.png",
    "difficulty": "medium"
  },
  {
    "name": "Czech Republic",
    "capital": "Prague",
    "latitude": 50.0755,
    "longitude": 14.4378,
    "radius": 100,
    "flag": "https://flagcdn.com/w320/cz.png",
    "difficulty": "easy"
  },
  {
    "name": "Democratic Republic of the Congo",
    "capital": "Kinshasa",
    "latitude": -4.4419,
    "longitude": 15.2663,
    "radius": 100,
    "flag": "https://flagcdn.com/w320/cd.png",
    "difficulty": "hard"
  },
  {
    "name": "Denmark",
    "capital": "Copenhagen",
    "latitude": 55.6761,
    "longitude": 12.5683,
    "radius": 100,
    "flag": "https://flagcdn.com/w320/dk.png",
    "difficulty": "easy"
  },
  {
    "name": "Djibouti",
    "capital": "Djibouti",
    "latitude": 11.8251,
    "longitude": 42.5903,
    "radius": 100,
    "flag": "https://flagcdn.com/w320/dj.png",
    "difficulty": "hard"
  },
  {
    "name": "Dominica",
    "capital": "Roseau",
    "latitude": 15.3092,
    "longitude": -61.379,
    "radius": 100,
    "flag": "https://flagcdn.com/w320/dm.png",
    "difficulty": "hard"
  },
  {
    "name": "Dominican Republic",
    "capital": "Santo Domingo",
    "latitude": 18.4861,
    "longitude": -69.9312,
    "radius": 100,
    "flag": "https://flagcdn.com/w320/do.png",
    "difficulty": "medium"
  },
  {
    "name": "Ecuador",
    "capital": "Quito",
    "latitude": -0.2299,
    "longitude": -78.5249,
    "radius": 100,
    "flag": "https://flagcdn.com/w320/ec.png",
    "difficulty": "medium"
  },
  {
    "name": "Egypt",
    "capital": "Cairo",
    "latitude": 30.0444,
    "longitude": 31.2357,
    "radius": 100,
    "flag": "https://flagcdn.com/w320/eg.png",
    "difficulty": "easy"
  },
  {
    "name": "El Salvador",
    "capital": "San Salvador",
    "latitude": 13.6929,
    "longitude": -89.2182,
    "radius": 100,
    "flag": "https://flagcdn.com/w320/sv.png",
    "difficulty": "medium"
  },
  {
    "name": "Equatorial Guinea",
    "capital": "Malabo",
    "latitude": 3.75,
    "longitude": 8.7833,
    "radius": 100,
    "flag": "https://flagcdn.com/w320/gq.png",
    "difficulty": "hard"
  },
  {
    "name": "Eritrea",
    "capital": "Asmara",
    "latitude": 15.3229,
    "longitude": 38.9251,
    "radius": 100,
    "flag": "https://flagcdn.com/w320/er.png",
    "difficulty": "hard"
  },
  {
    "name": "Estonia",
    "capital": "Tallinn",
    "latitude": 59.437,
    "longitude": 24.7535,
    "radius": 100,
    "flag": "https://flagcdn.com/w320/ee.png",
    "difficulty": "medium"
  },
  {
    "name": "Eswatini",
    "capital": "Mbabane",
    "latitude": -26.3208,
    "longitude": 31.1617,
    "radius": 100,
    "flag": "https://flagcdn.com/w320/sz.png",
    "difficulty": "hard"
  },
  {
    "name": "Ethiopia",
    "capital": "Addis Ababa",
    "latitude": 9.03,
    "longitude": 38.74,
    "radius": 100,
    "flag": "https://flagcdn.com/w320/et.png",
    "difficulty": "medium"
  },
  {
    "name": "Fiji",
    "capital": "Suva",
    "latitude": -18.1416,
    "longitude": 178.4419,
    "radius": 100,
    "flag": "https://flagcdn.com/w320/fj.png",
    "difficulty": "hard"
  },
  {
    "name": "Finland",
    "capital": "Helsinki",
    "latitude": 60.1699,
    "longitude": 24.9384,
    "radius": 100,
    "flag": "https://flagcdn.com/w320/fi.png",
    "difficulty": "easy"
  },
  {
    "name": "France",
    "capital": "Paris",
    "latitude": 48.8566,
    "longitude": 2.3522,
    "radius": 100,
    "flag": "https://flagcdn.com/w320/fr.png",
    "difficulty": "easy"
  },
  {
    "name": "Gabon",
    "capital": "Libreville",
    "latitude": 0.4162,
    "longitude": 9.4673,
    "radius": 100,
    "flag": "https://flagcdn.com/w320/ga.png",
    "difficulty": "hard"
  },
  {
    "name": "Gambia",
    "capital": "Banjul",
    "latitude": 13.4549,
    "longitude": -16.579,
    "radius": 100,
    "flag": "https://flagcdn.com/w320/gm.png",
    "difficulty": "hard"
  },
  {
    "name": "Georgia",
    "capital": "Tbilisi",
    "latitude": 41.7151,
    "longitude": 44.8271,
    "radius": 100,
    "flag": "https://flagcdn.com/w320/ge.png",
    "difficulty": "medium"
  },
  {
    "name": "Germany",
    "capital": "Berlin",
    "latitude": 52.52,
    "longitude": 13.405,
    "radius": 100,
    "flag": "https://flagcdn.com/w320/de.png",
    "difficulty": "easy"
  },
  {
    "name": "Ghana",
    "capital": "Accra",
    "latitude": 5.6037,
    "longitude": -0.187,
    "radius": 100,
    "flag": "https://flagcdn.com/w320/gh.png",
    "difficulty": "medium"
  },
  {
    "name": "Greece",
    "capital": "Athens",
    "latitude": 37.9838,
    "longitude": 23.7275,
    "radius": 100,
    "flag": "https://flagcdn.com/w320/gr.png",
    "difficulty": "easy"
  },
  {
    "name": "Grenada",
    "capital": "St. George's",
    "latitude": 12.0561,
    "longitude": -61.7486,
    "radius": 100,
    "flag": "https://flagcdn.com/w320/gd.png",
    "difficulty": "hard"
  },
  {
    "name": "Guatemala",
    "capital": "Guatemala City",
    "latitude": 14.6349,
    "longitude": -90.5069,
    "radius": 100,
    "flag": "https://flagcdn.com/w320/gt.png",
    "difficulty": "medium"
  },
  {
    "name": "Guinea",
    "capital": "Conakry",
    "latitude": 9.6412,
    "longitude": -13.5784,
    "radius": 100,
    "flag": "https://flagcdn.com/w320/gn.png",
    "difficulty": "hard"
  },
  {
    "name": "Guinea-Bissau",
    "capital": "Bissau",
    "latitude": 11.8817,
    "longitude": -15.617,
    "radius": 100,
    "flag": "https://flagcdn.com/w320/gw.png",
    "difficulty": "hard"
  },
  {
    "name": "Guyana",
    "capital": "Georgetown",
    "latitude": 6.8013,
    "longitude": -58.1551,
    "radius": 100,
    "flag": "https://flagcdn.com/w320/gy.png",
    "difficulty": "hard"
  },
  {
    "name": "Haiti",
    "capital": "Port-au-Prince",
    "latitude": 18.5944,
    "longitude": -72.3074,
    "radius": 100,
    "flag": "https://flagcdn.com/w320/ht.png",
    "difficulty": "medium"
  },
  {
    "name": "Honduras",
    "capital": "Tegucigalpa",
    "latitude": 14.0723,
    "longitude": -87.1921,
    "radius": 100,
    "flag": "https://flagcdn.com/w320/hn.png",
    "difficulty": "medium"
  },
  {
    "name": "Hungary",
    "capital": "Budapest",
    "latitude": 47.4979,
    "longitude": 19.0402,
    "radius": 100,
    "flag": "https://flagcdn.com/w320/hu.png",
    "difficulty": "easy"
  },
  {
    "name": "Iceland",
    "capital": "Reykjavik",
    "latitude": 64.1355,
    "longitude": -21.8954,
    "radius": 100,
    "flag": "https://flagcdn.com/w320/is.png",
    "difficulty": "medium"
  },
  {
    "name": "India",
    "capital": "New Delhi",
    "latitude": 28.6139,
    "longitude": 77.209,
    "radius": 100,
    "flag": "https://flagcdn.com/w320/in.png",
    "difficulty": "easy"
  },
  {
    "name": "Indonesia",
    "capital": "Jakarta",
    "latitude": -6.2088,
    "longitude": 106.8456,
    "radius": 100,
    "flag": "https://flagcdn.com/w320/id.png",
    "difficulty": "easy"
  },
  {
    "name": "Iran",
    "capital": "Tehran",
    "latitude": 35.6892,
    "longitude": 51.389,
    "radius": 100,
    "flag": "https://flagcdn.com/w320/ir.png",
    "difficulty": "medium"
  },
  {
    "name": "Iraq",
    "capital": "Baghdad",
    "latitude": 33.3152,
    "longitude": 44.3661,
    "radius": 100,
    "flag": "https://flagcdn.com/w320/iq.png",
    "difficulty": "medium"
  },
  {
    "name": "Ireland",
    "capital": "Dublin",
    "latitude": 53.3498,
    "longitude": -6.2603,
    "radius": 100,
    "flag": "https://flagcdn.com/w320/ie.png",
    "difficulty": "easy"
  },
  {
    "name": "Israel",
    "capital": "Jerusalem",
    "latitude": 31.7683,
    "longitude": 35.2137,
    "radius": 100,
    "flag": "https://flagcdn.com/w320/il.png",
    "difficulty": "medium"
  },
  {
    "name": "Italy",
    "capital": "Rome",
    "latitude": 41.9028,
    "longitude": 12.4964,
    "radius": 100,
    "flag": "https://flagcdn.com/w320/it.png",
    "difficulty": "easy"
  },
  {
    "name": "Jamaica",
    "capital": "Kingston",
    "latitude": 18.0179,
    "longitude": -76.8099,
    "radius": 100,
    "flag": "https://flagcdn.com/w320/jm.png",
    "difficulty": "medium"
  },
  {
    "name": "Japan",
    "capital": "Tokyo",
    "latitude": 35.6895,
    "longitude": 139.6917,
    "radius": 100,
    "flag": "https://flagcdn.com/w320/jp.png",
    "difficulty": "easy"
  },
  {
    "name": "Jordan",
    "capital": "Amman",
    "latitude": 31.9454,
    "longitude": 35.9284,
    "radius": 100,
    "flag": "https://flagcdn.com/w320/jo.png",
    "difficulty": "medium"
  },
  {
    "name": "Kazakhstan",
    "capital": "Astana",
    "latitude": 51.1605,
    "longitude": 71.4704,
    "radius": 100,
    "flag": "https://flagcdn.com/w320/kz.png",
    "difficulty": "medium"
  },
  {
    "name": "Kenya",
    "capital": "Nairobi",
    "latitude": -1.2864,
    "longitude": 36.8172,
    "radius": 100,
    "flag": "https://flagcdn.com/w320/ke.png",
    "difficulty": "medium"
  },
  {
    "name": "Kiribati",
    "capital": "Tarawa",
    "latitude": 1.4518,
    "longitude": 173.036,
    "radius": 100,
    "flag": "https://flagcdn.com/w320/ki.png",
    "difficulty": "hard"
  },
  {
    "name": "Kuwait",
    "capital": "Kuwait City",
    "latitude": 29.3759,
    "longitude": 47.9774,
    "radius": 100,
    "flag": "https://flagcdn.com/w320/kw.png",
    "difficulty": "medium"
  },
  {
    "name": "Kyrgyzstan",
    "capital": "Bishkek",
    "latitude": 42.8746,
    "longitude": 74.5698,
    "radius": 100,
    "flag": "https://flagcdn.com/w320/kg.png",
    "difficulty": "hard"
  },
  {
    "name": "Laos",
    "capital": "Vientiane",
    "latitude": 17.9757,
    "longitude": 102.6331,
    "radius": 100,
    "flag": "https://flagcdn.com/w320/la.png",
    "difficulty": "hard"
  },
  {
    "name": "Latvia",
    "capital": "Riga",
    "latitude": 56.9496,
    "longitude": 24.1052,
    "radius": 100,
    "flag": "https://flagcdn.com/w320/lv.png",
    "difficulty": "medium"
  },
  {
    "name": "Lebanon",
    "capital": "Beirut",
    "latitude": 33.8938,
    "longitude": 35.5018,
    "radius": 100,
    "flag": "https://flagcdn.com/w320/lb.png",
    "difficulty": "medium"
  },
  {
    "name": "Lesotho",
    "capital": "Maseru",
    "latitude": -29.3167,
    "longitude": 27.4833,
    "radius": 100,
    "flag": "https://flagcdn.com/w320/ls.png",
    "difficulty": "hard"
  },
  {
    "name": "Liberia",
    "capital": "Monrovia",
    "latitude": 6.2907,
    "longitude": -10.7605,
    "radius": 100,
    "flag": "https://flagcdn.com/w320/lr.png",
    "difficulty": "hard"
  },
  {
    "name": "Libya",
    "capital": "Tripoli",
    "latitude": 32.8872,
    "longitude": 13.1913,
    "radius": 100,
    "flag": "https://flagcdn.com/w320/ly.png",
    "difficulty": "medium"
  },
  {
    "name": "Liechtenstein",
    "capital": "Vaduz",
    "latitude": 47.1416,
    "longitude": 9.5215,
    "radius": 100,
    "flag": "https://flagcdn.com/w320/li.png",
    "difficulty": "hard"
  },
  {
    "name": "Lithuania",
    "capital": "Vilnius",
    "latitude": 54.6872,
    "longitude": 25.2797,
    "radius": 100,
    "flag": "https://flagcdn.com/w320/lt.png",
    "difficulty": "medium"
  },
  {
    "name": "Luxembourg",
    "capital": "Luxembourg",
    "latitude": 49.6117,
    "longitude": 6.13,
    "radius": 100,
    "flag": "https://flagcdn.com/w320/lu.png",
    "difficulty": "medium"
  },
  {
    "name": "Madagascar",
    "capital": "Antananarivo",
    "latitude": -18.8792,
    "longitude": 47.5079,
    "radius": 100,
    "flag": "https://flagcdn.com/w320/mg.png",
    "difficulty": "hard"
  },
  {
    "name": "Malawi",
    "capital": "Lilongwe",
    "latitude": -13.9833,
    "longitude": 33.7833,
    "radius": 100,
    "flag": "https://flagcdn.com/w320/mw.png",
    "difficulty": "hard"
  },
  {
    "name": "Malaysia",
    "capital": "Kuala Lumpur",
    "latitude": 3.139,
    "longitude": 101.6869,
    "radius": 100,
    "flag": "https://flagcdn.com/w320/my.png",
    "difficulty": "easy"
  },
  {
    "name": "Maldives",
    "capital": "Malé",
    "latitude": 4.1755,
    "longitude": 73.5093,
    "radius": 100,
    "flag": "https://flagcdn.com/w320/mv.png",
    "difficulty": "hard"
  },
  {
    "name": "Mali",
    "capital": "Bamako",
    "latitude": 12.6392,
    "longitude": -8.0029,
    "radius": 100,
    "flag": "https://flagcdn.com/w320/ml.png",
    "difficulty": "hard"
  },
  {
    "name": "Malta",
    "capital": "Valletta",
    "latitude": 35.8997,
    "longitude": 14.5146,
    "radius": 100,
    "flag": "https://flagcdn.com/w320/mt.png",
    "difficulty": "medium"
  },
  {
    "name": "Marshall Islands",
    "capital": "Majuro",
    "latitude": 7.1164,
    "longitude": 171.185,
    "radius": 100,
    "flag": "https://flagcdn.com/w320/mh.png",
    "difficulty": "hard"
  },
  {
    "name": "Mauritania",
    "capital": "Nouakchott",
    "latitude": 18.0735,
    "longitude": -15.9582,
    "radius": 100,
    "flag": "https://flagcdn.com/w320/mr.png",
    "difficulty": "hard"
  },
  {
    "name": "Mauritius",
    "capital": "Port Louis",
    "latitude": -20.165,
    "longitude": 57.4989,
    "radius": 100,
    "flag": "https://flagcdn.com/w320/mu.png",
    "difficulty": "hard"
  },
  {
    "name": "Mexico",
    "capital": "Mexico City",
    "latitude": 19.4326,
    "longitude": -99.1332,
    "radius": 100,
    "flag": "https://flagcdn.com/w320/mx.png",
    "difficulty": "easy"
  },
  {
    "name": "Micronesia",
    "capital": "Palikir",
    "latitude": 6.9175,
    "longitude": 158.185,
    "radius": 100,
    "flag": "https://flagcdn.com/w320/fm.png",
    "difficulty": "hard"
  },
  {
    "name": "Moldova",
    "capital": "Chisinau",
    "latitude": 47.0105,
    "longitude": 28.8638,
    "radius": 100,
    "flag": "https://flagcdn.com/w320/md.png",
    "difficulty": "medium"
  },
  {
    "name": "Monaco",
    "capital": "Monaco",
    "latitude": 43.7384,
    "longitude": 7.4246,
    "radius": 100,
    "flag": "https://flagcdn.com/w320/mc.png",
    "difficulty": "medium"
  },
  {
    "name": "Mongolia",
    "capital": "Ulaanbaatar",
    "latitude": 47.8864,
    "longitude": 106.9057,
    "radius": 100,
    "flag": "https://flagcdn.com/w320/mn.png",
    "difficulty": "hard"
  },
  {
    "name": "Montenegro",
    "capital": "Podgorica",
    "latitude": 42.4304,
    "longitude": 19.2594,
    "radius": 100,
    "flag": "https://flagcdn.com/w320/me.png",
    "difficulty": "medium"
  },
  {
    "name": "Morocco",
    "capital": "Rabat",
    "latitude": 34.0209,
    "longitude": -6.8416,
    "radius": 100,
    "flag": "https://flagcdn.com/w320/ma.png",
    "difficulty": "medium"
  },
  {
    "name": "Mozambique",
    "capital": "Maputo",
    "latitude": -25.9692,
    "longitude": 32.5732,
    "radius": 100,
    "flag": "https://flagcdn.com/w320/mz.png",
    "difficulty": "hard"
  },
  {
    "name": "Myanmar",
    "capital": "Naypyidaw",
    "latitude": 19.7633,
    "longitude": 96.0785,
    "radius": 100,
    "flag": "https://flagcdn.com/w320/mm.png",
    "difficulty": "hard"
  },
  {
    "name": "Namibia",
    "capital": "Windhoek",
    "latitude": -22.5597,
    "longitude": 17.0832,
    "radius": 100,
    "flag": "https://flagcdn.com/w320/na.png",
    "difficulty": "hard"
  },
  {
    "name": "Nauru",
    "capital": "Yaren",
    "latitude": -0.5477,
    "longitude": 166.9209,
    "radius": 100,
    "flag": "https://flagcdn.com/w320/nr.png",
    "difficulty": "hard"
  },
  {
    "name": "Nepal",
    "capital": "Kathmandu",
    "latitude": 27.7172,
    "longitude": 85.324,
    "radius": 100,
    "flag": "https://flagcdn.com/w320/np.png",
    "difficulty": "medium"
  },
  {
    "name": "Netherlands",
    "capital": "Amsterdam",
    "latitude": 52.3676,
    "longitude": 4.9041,
    "radius": 100,
    "flag": "https://flagcdn.com/w320/nl.png",
    "difficulty": "easy"
  },
  {
    "name": "New Zealand",
    "capital": "Wellington",
    "latitude": -41.2865,
    "longitude": 174.7762,
    "radius": 100,
    "flag": "https://flagcdn.com/w320/nz.png",
    "difficulty": "easy"
  },
  {
    "name": "Nicaragua",
    "capital": "Managua",
    "latitude": 12.114,
    "longitude": -86.2362,
    "radius": 100,
    "flag": "https://flagcdn.com/w320/ni.png",
    "difficulty": "medium"
  },
  {
    "name": "Niger",
    "capital": "Niamey",
    "latitude": 13.5128,
    "longitude": 2.1126,
    "radius": 100,
    "flag": "https://flagcdn.com/w320/ne.png",
    "difficulty": "hard"
  },
  {
    "name": "Nigeria",
    "capital": "Abuja",
    "latitude": 9.0579,
    "longitude": 7.4951,
    "radius": 100,
    "flag": "https://flagcdn.com/w320/ng.png",
    "difficulty": "medium"
  },
  {
    "name": "North Korea",
    "capital": "Pyongyang",
    "latitude": 39.0392,
    "longitude": 125.7625,
    "radius": 100,
    "flag": "https://flagcdn.com/w320/kp.png",
    "difficulty": "hard"
  },
  {
    "name": "North Macedonia",
    "capital": "Skopje",
    "latitude": 41.9981,
    "longitude": 21.4254,
    "radius": 100,
    "flag": "https://flagcdn.com/w320/mk.png",
    "difficulty": "medium"
  },
  {
    "name": "Norway",
    "capital": "Oslo",
    "latitude": 59.9139,
    "longitude": 10.7522,
    "radius": 100,
    "flag": "https://flagcdn.com/w320/no.png",
    "difficulty": "easy"
  },
  {
    "name": "Oman",
    "capital": "Muscat",
    "latitude": 23.588,
    "longitude": 58.3829,
    "radius": 100,
    "flag": "https://flagcdn.com/w320/om.png",
    "difficulty": "medium"
  },
  {
    "name": "Pakistan",
    "capital": "Islamabad",
    "latitude": 33.6844,
    "longitude": 73.0479,
    "radius": 100,
    "flag": "https://flagcdn.com/w320/pk.png",
    "difficulty": "medium"
  },  
  {
    "name": "Palau",
    "capital": "Ngerulmud",
    "latitude": 7.5004,
    "longitude": 134.6243,
    "radius": 100,
    "flag": "https://flagcdn.com/w320/pw.png",
    "difficulty": "hard"
  },
  {
    "name": "Palestine",
    "capital": "Ramallah",
    "latitude": 31.8996,
    "longitude": 35.2042,
    "radius": 100,
    "flag": "https://flagcdn.com/w320/ps.png",
    "difficulty": "hard"
  },
  {
    "name": "Panama",
    "capital": "Panama City",
    "latitude": 8.9833,
    "longitude": -79.5167,
    "radius": 100,
    "flag": "https://flagcdn.com/w320/pa.png",
    "difficulty": "medium"
  },
  {
    "name": "Papua New Guinea",
    "capital": "Port Moresby",
    "latitude": -9.4789,
    "longitude": 147.1494,
    "radius": 100,
    "flag": "https://flagcdn.com/w320/pg.png",
    "difficulty": "hard"
  },
  {
    "name": "Paraguay",
    "capital": "Asunción",
    "latitude": -25.2637,
    "longitude": -57.5759,
    "radius": 100,
    "flag": "https://flagcdn.com/w320/py.png",
    "difficulty": "medium"
  },
  {
    "name": "Peru",
    "capital": "Lima",
    "latitude": -12.0464,
    "longitude": -77.0428,
    "radius": 100,
    "flag": "https://flagcdn.com/w320/pe.png",
    "difficulty": "medium"
  },
  {
    "name": "Philippines",
    "capital": "Manila",
    "latitude": 14.5995,
    "longitude": 120.9842,
    "radius": 100,
    "flag": "https://flagcdn.com/w320/ph.png",
    "difficulty": "medium"
  },
  {
    "name": "Poland",
    "capital": "Warsaw",
    "latitude": 52.2297,
    "longitude": 21.0122,
    "radius": 100,
    "flag": "https://flagcdn.com/w320/pl.png",
    "difficulty": "easy"
  },
  {
    "name": "Portugal",
    "capital": "Lisbon",
    "latitude": 38.7169,
    "longitude": -9.1399,
    "radius": 100,
    "flag": "https://flagcdn.com/w320/pt.png",
    "difficulty": "easy"
  },
  {
    "name": "Qatar",
    "capital": "Doha",
    "latitude": 25.276987,
    "longitude": 51.520008,
    "radius": 100,
    "flag": "https://flagcdn.com/w320/qa.png",
    "difficulty": "medium"
  },
  {
    "name": "Romania",
    "capital": "Bucharest",
    "latitude": 44.4268,
    "longitude": 26.1025,
    "radius": 100,
    "flag": "https://flagcdn.com/w320/ro.png",
    "difficulty": "medium"
  },
  {
    "name": "Russia",
    "capital": "Moscow",
    "latitude": 55.7558,
    "longitude": 37.6173,
    "radius": 100,
    "flag": "https://flagcdn.com/w320/ru.png",
    "difficulty": "easy"
  },
  {
    "name": "Rwanda",
    "capital": "Kigali",
    "latitude": -1.9441,
    "longitude": 30.0619,
    "radius": 100,
    "flag": "https://flagcdn.com/w320/rw.png",
    "difficulty": "hard"
  },
  {
    "name": "Saint Kitts and Nevis",
    "capital": "Basseterre",
    "latitude": 17.3026,
    "longitude": -62.7177,
    "radius": 100,
    "flag": "https://flagcdn.com/w320/kn.png",
    "difficulty": "hard"
  },
  {
    "name": "Saint Lucia",
    "capital": "Castries",
    "latitude": 14.0101,
    "longitude": -60.9875,
    "radius": 100,
    "flag": "https://flagcdn.com/w320/lc.png",
    "difficulty": "hard"
  },
  {
    "name": "Saint Vincent and the Grenadines",
    "capital": "Kingstown",
    "latitude": 13.16,
    "longitude": -61.2248,
    "radius": 100,
    "flag": "https://flagcdn.com/w320/vc.png",
    "difficulty": "hard"
  },
  {
    "name": "Samoa",
    "capital": "Apia",
    "latitude": -13.8333,
    "longitude": -171.7667,
    "radius": 100,
    "flag": "https://flagcdn.com/w320/ws.png",
    "difficulty": "hard"
  },
  {
    "name": "San Marino",
    "capital": "San Marino",
    "latitude": 43.9333,
    "longitude": 12.45,
    "radius": 100,
    "flag": "https://flagcdn.com/w320/sm.png",
    "difficulty": "medium"
  },
  {
    "name": "Sao Tome and Principe",
    "capital": "São Tomé",
    "latitude": 0.3365,
    "longitude": 6.7273,
    "radius": 100,
    "flag": "https://flagcdn.com/w320/st.png",
    "difficulty": "hard"
  },
  {
    "name": "Saudi Arabia",
    "capital": "Riyadh",
    "latitude": 24.7136,
    "longitude": 46.6753,
    "radius": 100,
    "flag": "https://flagcdn.com/w320/sa.png",
    "difficulty": "medium"
  },
  {
    "name": "Senegal",
    "capital": "Dakar",
    "latitude": 14.6928,
    "longitude": -17.4467,
    "radius": 100,
    "flag": "https://flagcdn.com/w320/sn.png",
    "difficulty": "medium"
  },
  {
    "name": "Serbia",
    "capital": "Belgrade",
    "latitude": 44.7866,
    "longitude": 20.4489,
    "radius": 100,
    "flag": "https://flagcdn.com/w320/rs.png",
    "difficulty": "medium"
  },
  {
    "name": "Seychelles",
    "capital": "Victoria",
    "latitude": -4.6191,
    "longitude": 55.4513,
    "radius": 100,
    "flag": "https://flagcdn.com/w320/sc.png",
    "difficulty": "hard"
  },
  {
    "name": "Sierra Leone",
    "capital": "Freetown",
    "latitude": 8.4657,
    "longitude": -13.2317,
    "radius": 100,
    "flag": "https://flagcdn.com/w320/sl.png",
    "difficulty": "hard"
  },
  {
    "name": "Singapore",
    "capital": "Singapore",
    "latitude": 1.3521,
    "longitude": 103.8198,
    "radius": 100,
    "flag": "https://flagcdn.com/w320/sg.png",
    "difficulty": "easy"
  },
  {
    "name": "Slovakia",
    "capital": "Bratislava",
    "latitude": 48.1486,
    "longitude": 17.1077,
    "radius": 100,
    "flag": "https://flagcdn.com/w320/sk.png",
    "difficulty": "medium"
  },
  {
    "name": "Slovenia",
    "capital": "Ljubljana",
    "latitude": 46.0569,
    "longitude": 14.5058,
    "radius": 100,
    "flag": "https://flagcdn.com/w320/si.png",
    "difficulty": "medium"
  },
  {
    "name": "Solomon Islands",
    "capital": "Honiara",
    "latitude": -9.4317,
    "longitude": 159.9563,
    "radius": 100,
    "flag": "https://flagcdn.com/w320/sb.png",
    "difficulty": "hard"
  },
  {
    "name": "Somalia",
    "capital": "Mogadishu",
    "latitude": 2.0469,
    "longitude": 45.3182,
    "radius": 100,
    "flag": "https://flagcdn.com/w320/so.png",
    "difficulty": "hard"
  },
  {
    "name": "South Africa",
    "capital": "Pretoria",
    "latitude": -25.7479,
    "longitude": 28.2293,
    "radius": 100,
    "flag": "https://flagcdn.com/w320/za.png",
    "difficulty": "easy"
  },
  {
    "name": "South Sudan",
    "capital": "Juba",
    "latitude": 4.8594,
    "longitude": 31.5713,
    "radius": 100,
    "flag": "https://flagcdn.com/w320/ss.png",
    "difficulty": "hard"
  },
  {
    "name": "Spain",
    "capital": "Madrid",
    "latitude": 40.4168,
    "longitude": -3.7038,
    "radius": 100,
    "flag": "https://flagcdn.com/w320/es.png",
    "difficulty": "easy"
  },
  {
    "name": "Sri Lanka",
    "capital": "Sri Jayawardenepura Kotte",
    "latitude": 6.9271,
    "longitude": 79.8612,
    "radius": 100,
    "flag": "https://flagcdn.com/w320/lk.png",
    "difficulty": "medium"
  },
  {
    "name": "Sudan",
    "capital": "Khartoum",
    "latitude": 15.5007,
    "longitude": 32.5599,
    "radius": 100,
    "flag": "https://flagcdn.com/w320/sd.png",
    "difficulty": "medium"
  },
  {
    "name": "Suriname",
    "capital": "Paramaribo",
    "latitude": 5.852,
    "longitude": -55.2038,
    "radius": 100,
    "flag": "https://flagcdn.com/w320/sr.png",
    "difficulty": "hard"
  },
  {
    "name": "Sweden",
    "capital": "Stockholm",
    "latitude": 59.3293,
    "longitude": 18.0686,
    "radius": 100,
    "flag": "https://flagcdn.com/w320/se.png",
    "difficulty": "easy"
  },
  {
    "name": "Switzerland",
    "capital": "Bern",
    "latitude": 46.9481,
    "longitude": 7.4474,
    "radius": 100,
    "flag": "https://flagcdn.com/w320/ch.png",
    "difficulty": "easy"
  },
  {
    "name": "Syria",
    "capital": "Damascus",
    "latitude": 33.5138,
    "longitude": 36.2765,
    "radius": 100,
    "flag": "https://flagcdn.com/w320/sy.png",
    "difficulty": "medium"
  },
  {
    "name": "Taiwan",
    "capital": "Taipei",
    "latitude": 25.033,
    "longitude": 121.5654,
    "radius": 100,
    "flag": "https://flagcdn.com/w320/tw.png",
    "difficulty": "medium"
  },
  {
    "name": "Tajikistan",
    "capital": "Dushanbe",
    "latitude": 38.5598,
    "longitude": 68.787,
    "radius": 100,
    "flag": "https://flagcdn.com/w320/tj.png",
    "difficulty": "hard"
  },
  {
    "name": "Tanzania",
    "capital": "Dodoma",
    "latitude": -6.163,
    "longitude": 35.7516,
    "radius": 100,
    "flag": "https://flagcdn.com/w320/tz.png",
    "difficulty": "medium"
  },
  {
    "name": "Thailand",
    "capital": "Bangkok",
    "latitude": 13.7563,
    "longitude": 100.5018,
    "radius": 100,
    "flag": "https://flagcdn.com/w320/th.png",
    "difficulty": "easy"
  },
  {
    "name": "Timor-Leste",
    "capital": "Dili",
    "latitude": -8.5569,
    "longitude": 125.5603,
    "radius": 100,
    "flag": "https://flagcdn.com/w320/tl.png",
    "difficulty": "hard"
  },
  {
    "name": "Togo",
    "capital": "Lomé",
    "latitude": 6.1319,
    "longitude": 1.222,
    "radius": 100,
    "flag": "https://flagcdn.com/w320/tg.png",
    "difficulty": "hard"
  },
  {
    "name": "Tonga",
    "capital": "Nukuʻalofa",
    "latitude": -21.1394,
    "longitude": -175.2045,
    "radius": 100,
    "flag": "https://flagcdn.com/w320/to.png",
    "difficulty": "hard"
  },
  {
    "name": "Trinidad and Tobago",
    "capital": "Port of Spain",
    "latitude": 10.6918,
    "longitude": -61.2225,
    "radius": 100,
    "flag": "https://flagcdn.com/w320/tt.png",
    "difficulty": "medium"
  },
  {
    "name": "Tunisia",
    "capital": "Tunis",
    "latitude": 36.8065,
    "longitude": 10.1815,
    "radius": 100,
    "flag": "https://flagcdn.com/w320/tn.png",
    "difficulty": "medium"
  },
  {
    "name": "Turkey",
    "capital": "Ankara",
    "latitude": 39.9334,
    "longitude": 32.8597,
    "radius": 100,
    "flag": "https://flagcdn.com/w320/tr.png",
    "difficulty": "easy"
  },
  {
    "name": "Turkmenistan",
    "capital": "Ashgabat",
    "latitude": 37.9601,
    "longitude": 58.3261,
    "radius": 100,
    "flag": "https://flagcdn.com/w320/tm.png",
    "difficulty": "hard"
  },
  {
    "name": "Tuvalu",
    "capital": "Funafuti",
    "latitude": -8.5167,
    "longitude": 179.2167,
    "radius": 100,
    "flag": "https://flagcdn.com/w320/tv.png",
    "difficulty": "hard"
  },
  {
    "name": "Uganda",
    "capital": "Kampala",
    "latitude": 0.3476,
    "longitude": 32.5825,
    "radius": 100,
    "flag": "https://flagcdn.com/w320/ug.png",
    "difficulty": "medium"
  },
  {
    "name": "Ukraine",
    "capital": "Kyiv",
    "latitude": 50.4501,
    "longitude": 30.5234,
    "radius": 100,
    "flag": "https://flagcdn.com/w320/ua.png",
    "difficulty": "medium"
  },
  {
    "name": "United Arab Emirates",
    "capital": "Abu Dhabi",
    "latitude": 24.4539,
    "longitude": 54.3773,
    "radius": 100,
    "flag": "https://flagcdn.com/w320/ae.png",
    "difficulty": "medium"
  },
  {
    "name": "United Kingdom",
    "capital": "London",
    "latitude": 51.5072,
    "longitude": -0.1276,
    "radius": 100,
    "flag": "https://flagcdn.com/w320/gb.png",
    "difficulty": "easy"
  },
  {
    "name": "United States",
    "capital": "Washington, D.C.",
    "latitude": 38.8951,
    "longitude": -77.0364,
    "radius": 100,
    "flag": "https://flagcdn.com/w320/us.png",
    "difficulty": "easy"
  },
  {
    "name": "Uruguay",
    "capital": "Montevideo",
    "latitude": -34.9011,
    "longitude": -56.1645,
    "radius": 100,
    "flag": "https://flagcdn.com/w320/uy.png",
    "difficulty": "medium"
  },
  {
    "name": "Uzbekistan",
    "capital": "Tashkent",
    "latitude": 41.2995,
    "longitude": 69.2401,
    "radius": 100,
    "flag": "https://flagcdn.com/w320/uz.png",
    "difficulty": "hard"
  },
  {
    "name": "Vanuatu",
    "capital": "Port Vila",
    "latitude": -17.7333,
    "longitude": 168.3167,
    "radius": 100,
    "flag": "https://flagcdn.com/w320/vu.png",
    "difficulty": "hard"
  },
  {
    "name": "Vatican City",
    "capital": "Vatican City",
    "latitude": 41.9029,
    "longitude": 12.4534,
    "radius": 100,
    "flag": "https://flagcdn.com/w320/va.png",
    "difficulty": "easy"
  },
  {
    "name": "Venezuela",
    "capital": "Caracas",
    "latitude": 10.4806,
    "longitude": -66.9036,
    "radius": 100,
    "flag": "https://flagcdn.com/w320/ve.png",
    "difficulty": "medium"
  },
  {
    "name": "Vietnam",
    "capital": "Hanoi",
    "latitude": 21.0285,
    "longitude": 105.8542,
    "radius": 100,
    "flag": "https://flagcdn.com/w320/vn.png",
    "difficulty": "medium"
  },
  {
    "name": "Yemen",
    "capital": "Sana'a",
    "latitude": 15.3694,
    "longitude": 44.191,
    "radius": 100,
    "flag": "https://flagcdn.com/w320/ye.png",
    "difficulty": "hard"
  },
  {
    "name": "Zambia",
    "capital": "Lusaka",
    "latitude": -15.3875,
    "longitude": 28.3228,
    "radius": 100,
    "flag": "https://flagcdn.com/w320/zm.png",
    "difficulty": "medium"
  },
  {
    "name": "Zimbabwe",
    "capital": "Harare",
    "latitude": -17.8252,
    "longitude": 31.0335,
    "radius": 100,
    "flag": "https://flagcdn.com/w320/zw.png",
    "difficulty": "medium"
  }
]
